City,Lat,Lng,Max Temp,Humidity,Cloudiness,Wind Speed,Country,Date
rikitea,-23.1203,-134.9692,70.88,67,25,5.03,PF,1627246667
puerto ayora,36.5939,-6.233,75.31,80,0,17.27,ES,1627246763
ushuaia,-54.8,-68.3,37.06,75,40,20.71,AR,1627246679
jamestown,42.097,-79.2353,84.09,54,20,9.22,US,1627246555
georgetown,5.4112,100.3354,82.89,86,20,1.99,MY,1627246413
salta,-24.7859,-65.4117,77.59,37,40,8.01,AR,1627246763
vestmanna,62.1564,-7.1664,49.12,100,90,4.61,FO,1627246764
qostanay,53.1667,63.5833,55.33,85,1,7.76,KZ,1627246764
burnie,-41.0667,145.9167,46.92,88,31,7.36,AU,1627246764
codrington,-38.2667,141.9667,52.0,89,82,15.48,AU,1627246763
pacific grove,38.482,-90.7415,90.88,77,47,7.99,US,1627246765
bredasdorp,-34.5322,20.0403,50.29,93,100,3.44,ZA,1627246684
atuona,-9.8,-139.0333,77.88,72,70,24.67,PF,1627246685
tuatapere,-46.1333,167.6833,45.82,96,100,4.88,NZ,1627246765
busselton,-33.65,115.3333,58.08,65,22,20.89,AU,1627246678
norman wells,35.2226,-97.4395,99.88,51,1,8.05,US,1627246639
ancud,-41.8697,-73.8203,47.73,63,25,8.75,CL,1627246721
ponta do sol,38.7333,-28.2667,68.68,77,96,11.1,PT,1627246766
rio grande,38.3,21.7833,80.6,55,0,6.64,GR,1627246766
teya,60.3778,92.6267,63.01,71,18,2.75,RU,1627246767
sambava,-14.2667,50.1667,65.12,84,68,10.51,MG,1627246767
punta arenas,8.9897,125.34,77.99,84,98,3.8,PH,1627246767
mount isa,53.6597,-1.8537,65.52,75,93,2.98,GB,1627246768
buala,-8.145,159.5921,80.71,82,24,7.0,SB,1627246768
ribeira grande,42.7461,-8.4439,66.51,83,20,4.61,ES,1627246768
vila franca do campo,42.0304,-8.1588,60.75,87,13,3.0,PT,1627246769
bengkulu,-3.8004,102.2655,74.03,85,1,5.39,ID,1627246673
port alfred,-7.0349,29.7638,67.95,55,19,5.37,CD,1627246769
tasiilaq,65.6145,-37.6368,39.67,82,43,5.59,GL,1627246717
gurupa,-1.405,-51.64,84.36,59,99,2.26,BR,1627246769
ayagoz,47.9714,80.4392,74.82,38,94,5.82,KZ,1627246770
pangnirtung,66.1451,-65.7125,46.4,100,90,10.36,CA,1627246686
new norfolk,6.6518,-10.5932,76.23,85,99,3.2,LR,1627246770
bluff,-46.6,168.3333,45.81,86,100,4.54,NZ,1627246672
hithadhoo,-0.6,73.0833,80.69,75,85,4.52,MV,1627246688
castro,-24.7911,-50.0119,58.91,65,2,4.34,BR,1627246681
taga,46.95,24.05,70.48,59,63,3.42,RO,1627246771
paz de ariporo,20.9666,-103.8991,92.37,42,1,1.03,MX,1627246771
valleyview,55.0667,-117.2859,73.74,30,82,7.02,CA,1627246772
noumea,-22.2763,166.4572,70.0,99,61,6.69,NC,1627246772
sturgeon falls,40.3848,-80.2109,89.31,64,40,6.91,US,1627246772
saint-philippe,-21.3585,55.7679,69.35,75,40,11.59,RE,1627246769
tuktoyaktuk,69.4541,-133.0374,48.2,93,90,17.27,CA,1627246765
margate,51.3813,1.3862,65.03,90,50,1.01,GB,1627246773
victoria,22.2855,114.1577,85.32,85,15,1.99,HK,1627246601
hermanus,-34.4187,19.2345,61.9,53,100,10.0,ZA,1627246696
camacari,-12.6975,-38.3242,76.77,88,20,6.71,BR,1627246773
slobozia,46.7281,29.7078,70.68,51,25,2.53,MD,1627246773
khao wong,12.3574,102.4387,76.37,88,100,3.98,TH,1627246774
zhigansk,66.7697,123.3711,60.33,65,38,9.13,RU,1627246774
cape town,-36.413,-71.9028,53.02,87,100,9.17,CL,1627246774
grajau,-5.8194,-46.1386,87.19,32,7,4.52,BR,1627246775
gao,16.6362,1.637,92.5,40,22,9.93,ML,1627246775
sahuaripa,29.05,-109.2333,91.44,41,26,3.11,MX,1627246775
bodaybo,57.8506,114.1933,57.85,77,35,2.01,RU,1627246776
mungaoli,24.4167,78.1,77.74,91,98,12.3,IN,1627246776
thompson,55.7435,-97.8558,62.76,42,20,10.36,CA,1627246698
chokurdakh,70.6333,147.9167,43.54,62,0,9.93,RU,1627246769
hilo,19.7297,-155.09,82.8,83,90,4.61,US,1627246524
cidreira,-30.1811,-50.2056,65.59,71,8,10.47,BR,1627246746
kahului,20.8947,-156.47,80.83,91,46,15.99,US,1627246755
mahebourg,-20.4081,57.7,70.09,64,20,11.5,MU,1627246715
port elizabeth,-7.0349,29.7638,67.95,55,19,5.37,CD,1627246777
provideniya,64.3833,-173.3,46.51,100,90,4.47,RU,1627246777
lata,40.1629,-8.3327,66.92,99,58,3.31,PT,1627246731
les cayes,42.8108,0.7105,67.26,95,96,1.9,ES,1627246778
wanning,18.8003,110.3967,78.91,92,61,7.45,CN,1627246778
evensk,61.95,159.2333,49.1,99,100,7.56,RU,1627246778
mahates,10.2329,-75.1899,84.09,72,100,2.33,CO,1627246779
point fortin,-29.8647,31.0413,59.05,84,0,1.01,ZA,1627246779
kieta,-6.2167,155.6333,79.18,84,42,1.16,PG,1627246779
manaus,-3.1019,-60.025,90.1,58,40,4.61,BR,1627246165
west wendover,31.8024,-97.0917,100.24,41,1,6.91,US,1627246780
souillac,-20.5167,57.5167,70.18,64,20,11.5,MU,1627246780
upernavik,72.7868,-56.1549,41.59,80,11,12.95,GL,1627246769
beringovskiy,63.05,179.3167,51.76,90,100,2.35,RU,1627246737
mataura,-46.1927,168.8643,45.48,91,100,2.66,NZ,1627246669
pisco,-13.7,-76.2167,66.25,72,0,9.22,PE,1627246397
vaini,-21.2,-175.2,75.56,83,80,4.36,TO,1627246692
kodiak,57.79,-152.4072,53.11,94,20,3.44,US,1627246473
albany,42.6001,-73.9662,84.85,74,46,3.06,US,1627246670
saldanha,-33.0117,17.9442,53.65,48,100,12.17,ZA,1627246761
ishigaki,24.3448,124.1572,84.02,89,97,18.66,JP,1627246727
labuhan,-6.8844,112.2051,71.69,87,32,7.87,ID,1627246737
zimovniki,47.1483,42.4633,74.21,38,17,8.12,RU,1627246781
faanui,-16.4833,-151.75,78.06,65,0,10.96,PF,1627246676
adilabad,19.6667,78.5333,76.71,85,8,9.95,IN,1627246782
santa rosalia,17.486,120.4348,79.16,92,100,12.28,PH,1627246782
nampula,-15.1165,39.2666,62.55,82,75,14.97,MZ,1627246507
klaksvik,62.2266,-6.589,50.92,95,100,8.08,FO,1627246699
hofn,64.2539,-15.2082,52.21,95,100,20.42,IS,1627246783
tumut,-35.3,148.2167,47.39,99,100,4.03,AU,1627246783
turukhansk,65.8167,87.9833,62.83,75,29,5.01,RU,1627246783
makakilo city,21.3524,-158.0865,81.72,76,72,17.4,US,1627246784
shumyachi,53.8583,32.4242,62.53,77,21,5.37,RU,1627246784
ruteng,-8.6136,120.4721,56.25,52,22,1.32,ID,1627246784
longyearbyen,78.2186,15.6401,44.44,87,75,10.36,SJ,1627246775
airai,-8.9266,125.4092,55.42,54,70,3.33,TL,1627246736
yaan,7.3833,8.5667,71.92,91,89,4.92,NG,1627246785
jhansi,25.4333,78.5833,81.09,87,92,6.82,IN,1627246785
lebu,-37.6167,-73.65,50.85,90,54,15.28,CL,1627246673
saskylakh,71.9167,114.0833,55.63,67,90,11.72,RU,1627246682
jatiroto,-7.8833,111.1167,67.46,81,8,1.97,ID,1627246786
marand,38.4329,45.7749,79.14,64,0,7.54,IR,1627246786
whitianga,-36.8333,175.7,56.01,95,100,20.56,NZ,1627246786
mangan,27.5167,88.5333,77.31,94,100,0.74,IN,1627246776
grand river south east,38.8755,-109.5012,93.6,24,12,6.58,US,1627246787
maragheh,37.3917,46.2398,79.95,46,10,17.07,IR,1627246787
katsuura,35.1333,140.3,81.1,82,49,13.24,JP,1627246787
ekhabi,53.5102,142.9671,70.48,81,100,10.63,RU,1627246788
cherskiy,68.75,161.3,48.42,59,15,6.98,RU,1627246788
kaitangata,-46.2817,169.8464,49.93,73,100,3.56,NZ,1627246788
kapaa,22.0752,-159.319,82.38,81,37,1.99,US,1627246664
kirkenaer,60.4564,12.0582,72.25,62,9,2.84,NO,1627246789
sioux lookout,42.7333,-96.2336,90.97,48,1,6.91,US,1627246789
barrow,71.2906,-156.7887,37.78,93,100,13.65,US,1627246435
kjollefjord,70.9457,27.3465,44.42,93,40,12.66,NO,1627246789
macheng,31.1783,115.0319,75.24,88,18,5.64,CN,1627246790
lima duarte,-12.0432,-77.0282,64.65,68,90,6.91,PE,1627246542
san patricio,13.3034,-4.8956,82.71,63,39,11.05,ML,1627246790
arraial do cabo,-22.8362,-46.646,77.52,34,0,3.83,BR,1627246791
dikson,73.5069,80.5464,40.06,83,100,12.95,RU,1627246791
mackenzie,55.2999,-123.1698,61.02,72,90,16.11,CA,1627246791
gualaquiza,-3.4,-78.55,74.39,62,86,2.91,EC,1627246756
mayo,38.8876,-76.5119,91.72,72,70,4.0,US,1627246792
pemba,-12.974,40.5178,71.56,65,47,20.27,MZ,1627246507
camacha,33.0833,-16.3333,74.53,88,75,12.66,PT,1627246792
smolenka,52.1352,113.4974,59.07,82,97,4.47,RU,1627246792
sabzevar,36.2126,57.6819,87.21,15,0,25.68,IR,1627246793
barabai,-2.5833,115.3833,69.55,90,0,2.04,ID,1627246793
maragogi,-9.0122,-35.2225,73.85,88,19,12.06,BR,1627246533
namtsy,62.7161,129.6658,60.91,63,4,4.83,RU,1627246793
nome,64.5011,-165.4064,50.16,93,100,11.65,US,1627246733
avarua,-21.2078,-159.775,78.85,78,75,8.05,CK,1627246691
hobart,-42.8794,147.3294,45.23,70,20,1.99,AU,1627246723
sao filipe,20.5113,76.2129,72.41,85,38,14.43,IN,1627246794
torbay,47.6666,-52.7314,62.28,87,75,10.36,CA,1627246669
pevek,69.7008,170.3133,34.93,91,100,8.39,RU,1627246689
teguldet,57.3064,88.1667,62.49,76,100,3.24,RU,1627246795
luganville,-15.5333,167.1667,78.3,87,78,1.1,VU,1627246739
xai-xai,-25.0519,33.6442,61.0,73,23,6.26,MZ,1627246507
rio gallegos,38.3,21.7833,80.6,55,0,6.64,GR,1627246567
berlevag,70.8578,29.0864,44.6,87,75,20.71,NO,1627246729
rawson,-43.3002,-65.1023,49.6,41,37,15.59,AR,1627246795
sola,-13.8833,167.55,80.04,79,48,10.16,VU,1627246721
kindu,-2.95,25.95,79.23,35,35,5.14,CD,1627246796
long,18.0761,99.8326,71.94,99,100,2.89,TH,1627246796
port hawkesbury,-7.0349,29.7638,67.95,55,19,5.37,CD,1627246796
kruisfontein,-34.0033,24.7314,54.82,35,57,7.18,ZA,1627246797
faya,18.3851,42.4509,66.31,77,100,5.03,SA,1627246797
lagoa,39.05,-27.9833,70.03,79,94,11.92,PT,1627246686
palauig,15.435,119.9045,81.48,87,100,13.69,PH,1627246797
san rafael,13.3034,-4.8956,82.71,63,39,11.05,ML,1627246546
brazzaville,-4.2658,15.2832,75.51,73,13,4.61,CG,1627246798
severo-kurilsk,50.6789,156.125,56.05,94,85,3.51,RU,1627246785
kabanjahe,3.1001,98.4908,66.96,93,77,1.5,ID,1627246798
mount gambier,53.6597,-1.8537,65.52,75,93,2.98,GB,1627246798
ust-maya,60.4167,134.5333,61.3,76,6,3.62,RU,1627246799
vestmannaeyjar,63.4427,-20.2734,50.99,93,75,14.97,IS,1627246799
kattivakkam,13.2167,80.3167,80.69,62,78,13.65,IN,1627246799
berestechko,50.3605,25.1107,69.01,76,56,7.65,UA,1627246800
grand gaube,38.8755,-109.5012,93.6,24,12,6.58,US,1627246800
fortuna,40.5982,-124.1573,97.48,82,1,16.11,US,1627246682
talnakh,69.4865,88.3972,55.96,94,100,5.32,RU,1627246702
sabang,5.8933,95.3214,82.62,79,99,10.94,ID,1627246801
nabire,-3.3667,135.4833,75.76,86,100,3.11,ID,1627246801
ravar,31.2656,56.8055,83.05,12,0,1.77,IR,1627246802
bonthe,7.5264,-12.505,77.16,80,100,7.07,SL,1627246711
isangel,-19.55,169.2667,75.02,86,100,13.51,VU,1627246804
east london,65.0,-15.0,53.91,74,100,16.46,IS,1627246804
qena,26.1615,32.7183,87.48,23,0,9.71,EG,1627246805
togur,58.3631,82.8265,64.24,84,10,5.59,RU,1627246805
mar del plata,43.4002,-4.0094,68.14,88,75,3.0,ES,1627246806
qaanaaq,77.484,-69.3632,40.28,72,76,4.21,GL,1627246679
miri,4.4148,114.0089,78.96,88,100,1.86,MY,1627246806
hambantota,6.1241,81.1185,79.88,78,99,17.25,LK,1627246806
olafsvik,64.8945,-23.7142,49.55,92,81,26.96,IS,1627246675
salalah,17.0151,54.0924,77.61,84,78,12.1,OM,1627246729
port-cartier,50.0334,-66.8654,65.93,85,100,2.57,CA,1627246807
kalinin,47.2468,39.5109,79.57,37,4,8.77,RU,1627246807
nikolskoye,59.7035,30.7861,67.89,73,26,2.51,RU,1627246702
marsh harbour,53.6512,-1.8078,66.61,75,93,3.04,GB,1627246808
otavi,-19.65,17.3333,56.73,43,0,11.21,NA,1627246808
siguiri,11.6667,-9.5,75.22,88,94,2.37,GN,1627246808
marawi,7.9986,124.2928,69.66,90,96,5.19,PH,1627246809
yellowknife,62.456,-114.3525,63.32,51,20,3.0,CA,1627246378
ahipara,-35.1667,173.1667,58.6,90,13,11.48,NZ,1627246809
bat khela,51.3779,-2.3591,68.68,82,99,5.97,GB,1627246547
brownsville,25.9018,-97.4975,93.88,61,4,5.01,US,1627246715
sanchor,24.7553,71.7722,84.02,78,100,14.07,IN,1627246810
coahuayana,18.7333,-103.6833,88.57,64,68,6.42,MX,1627246810
ostrovnoy,68.0531,39.5131,45.54,90,100,16.53,RU,1627246799
ambulu,-8.345,113.6058,67.06,88,6,3.67,ID,1627246810
viedma,-40.8135,-62.9967,49.89,41,36,11.43,AR,1627246811
warrenton,-28.114,24.8475,41.13,33,8,9.4,ZA,1627246811
ilulissat,69.2167,-51.1,44.82,55,100,8.5,GL,1627246783
otane,-39.8833,176.6333,54.01,86,100,14.14,NZ,1627246812
phan rang,19.5539,99.7405,74.8,97,100,1.7,TH,1627246812
ocampo,21.65,-101.5,74.28,31,3,9.86,MX,1627246813
okha,53.5739,142.9478,68.38,83,100,9.84,RU,1627246813
mastic beach,40.802,-72.8409,82.62,84,93,1.99,US,1627246814
kamenka,51.3223,42.7678,61.57,55,20,5.41,RU,1627246731
namatanai,-3.6667,152.4333,79.07,83,95,1.7,PG,1627246815
aguimes,27.9054,-15.4461,70.43,64,20,25.32,ES,1627246815
mackay,-21.15,149.2,53.04,52,8,9.62,AU,1627246816
sterling,39.0062,-77.4286,91.63,63,75,8.99,US,1627246816
vitoria da conquista,-20.3194,-40.3378,69.42,68,2,8.68,BR,1627246817
clyde river,41.3042,-82.9752,88.39,66,39,7.63,US,1627246818
khatanga,71.9667,102.5,50.18,82,43,5.97,RU,1627246709
quelimane,-17.8786,36.8883,62.56,83,40,5.48,MZ,1627246818
port augusta,-7.0349,29.7638,67.95,55,19,5.37,CD,1627246819
port hardy,-7.0349,29.7638,67.95,55,19,5.37,CD,1627246796
verkhnevilyuysk,63.4453,120.3167,64.04,74,9,5.14,RU,1627246819
peniche,39.3558,-9.3811,71.08,91,15,9.44,PT,1627246820
guerrero,17.6667,-100.0,80.01,64,67,3.18,MX,1627246677
george,-33.963,22.4617,51.35,58,0,3.44,ZA,1627246820
aklavik,68.2191,-135.0107,54.43,68,100,16.24,CA,1627246778
gondar,12.6,37.4667,57.11,94,100,1.95,ET,1627246821
lekoni,-1.5843,14.2591,83.7,40,97,8.14,GA,1627246822
flinders,-34.5833,150.8552,55.26,68,0,4.0,AU,1627246742
esperance,-33.8667,121.9,51.64,87,2,17.87,AU,1627246668
lorengau,-2.0226,147.2712,78.89,82,97,8.28,PG,1627246683
manzhouli,49.6,117.4333,54.99,90,19,5.23,CN,1627246823
auray,47.6703,-2.9918,64.89,91,49,7.16,FR,1627246823
fountain hills,38.6822,-104.7008,90.86,45,75,11.5,US,1627246824
moranbah,-22.0016,148.0466,49.08,48,5,9.53,AU,1627246824
buraydah,26.326,43.975,95.41,13,2,10.94,SA,1627246825
tocopilla,-22.092,-70.1979,63.5,72,100,11.3,CL,1627246825
ampanihy,-24.7,44.75,61.41,70,64,13.73,MG,1627246826
tiksi,71.6872,128.8694,49.66,80,100,7.23,RU,1627246679
ron,15.6667,75.7333,71.37,89,68,16.46,IN,1627246827
alekseyevka,50.6309,38.6903,66.07,55,62,7.56,RU,1627246827
rorvik,64.8621,11.2373,53.71,100,90,9.22,NO,1627246828
college,64.8569,-147.8028,66.99,57,55,3.0,US,1627246828
mezhdurechensk,53.6942,88.0603,60.64,97,84,2.93,RU,1627246829
hasaki,35.7333,140.8333,75.6,78,9,16.53,JP,1627246677
itum-kale,42.7356,45.5758,65.37,92,45,3.98,RU,1627246830
mys shmidta,62.0589,48.6201,51.73,79,86,5.66,RU,1627246830
ovalle,-30.5983,-71.2003,62.33,43,0,8.43,CL,1627246625
trairi,-3.2778,-39.2689,78.22,74,13,11.9,BR,1627246831
bambous virieux,-20.2567,57.4061,67.14,62,4,11.92,MU,1627246831
cabo san lucas,-8.2833,-35.0333,71.53,89,26,8.08,BR,1627246832
ouesso,1.6136,16.0517,73.0,87,100,3.04,CG,1627246832
wanaka,-44.7,169.15,44.11,99,100,1.1,NZ,1627246832
adrar,20.5022,-10.0711,99.16,7,13,7.81,MR,1627246733
russell,32.3502,-85.1999,92.98,65,91,0.67,US,1627246833
nanortalik,60.1432,-45.2371,44.78,74,78,13.49,GL,1627246780
shahreza,32.0339,51.8794,76.8,17,2,2.53,IR,1627246834
yumen,40.2833,97.2,74.59,35,4,11.16,CN,1627246834
north kessock,50.3333,3.6667,66.6,93,78,6.89,FR,1627246835
patti,31.2808,74.8572,87.75,59,100,7.49,IN,1627246836
kurgan,55.45,65.3333,50.09,59,0,6.93,RU,1627246705
les escoumins,42.8108,0.7105,67.26,95,96,1.9,ES,1627246836
morant bay,17.9,-76.4333,83.73,71,86,5.48,JM,1627246836
srandakan,-7.9386,110.2506,69.01,91,24,4.0,ID,1627246837
zhanaozen,43.3,52.8,84.25,28,0,18.45,KZ,1627246838
karratha,-20.7377,116.8463,68.38,49,69,5.39,AU,1627246838
luderitz,-26.6481,15.1594,66.85,22,100,4.27,NA,1627246667
bubaque,11.2833,-15.8333,79.38,81,100,7.58,GW,1627246703
tautira,-17.7333,-149.15,82.42,68,0,10.22,PF,1627246839
koungheul,13.9833,-14.8,83.46,70,98,11.07,SN,1627246839
taltal,-25.4,-70.4833,60.08,73,24,4.99,CL,1627246840
butaritari,3.0707,172.7902,82.45,73,80,11.48,KI,1627246664
gimli,50.6336,-96.9907,86.43,29,43,16.46,CA,1627246840
helong,42.5397,128.9972,70.05,97,100,2.15,CN,1627246841
arman,59.7,150.1667,54.37,98,100,5.08,RU,1627246820
caravelas,-17.7125,-39.2481,70.05,74,22,7.18,BR,1627246842
gamba,-2.65,10.0,70.74,89,93,3.89,GA,1627246842
arica,-18.475,-70.3042,61.68,80,28,8.3,CL,1627246842
viransehir,37.2353,39.7631,87.93,23,0,8.19,TR,1627246843
sobolevo,54.4299,31.8996,63.41,70,60,4.56,RU,1627246843
brokopondo,4.75,-55.1667,82.71,71,88,4.61,SR,1627246843
penzance,50.1186,-5.5371,61.81,87,11,9.37,GB,1627246844
nyurba,63.2842,118.3319,64.4,74,4,4.54,RU,1627246844
moerai,-22.4333,-151.3333,73.53,80,57,7.83,PF,1627246845
kangaatsiaq,68.3065,-53.4641,40.78,90,100,6.71,GL,1627246845
port lincoln,-7.0349,29.7638,67.95,55,19,5.37,CD,1627246777
dunedin,-45.8742,170.5036,50.81,77,100,11.99,NZ,1627246771
banfora,10.6333,-4.7667,75.69,85,97,4.76,BF,1627246846
abu samrah,24.6,72.7,67.82,95,100,7.18,IN,1627246847
takoradi,4.8845,-1.7554,75.07,79,21,8.46,GH,1627246847
chapais,49.7834,-74.8492,64.18,54,94,9.86,CA,1627246847
honiara,-9.4333,159.95,79.2,85,63,6.2,SB,1627246699
husavik,66.0449,-17.3389,57.67,62,100,10.85,IS,1627246830
srednekolymsk,67.45,153.6833,44.56,64,100,16.24,RU,1627246754
shamary,57.3434,58.2199,52.66,62,100,2.68,RU,1627246848
tura,25.5198,90.2201,75.4,95,100,4.83,IN,1627246828
manali,13.1667,80.2667,80.69,60,85,12.59,IN,1627246849
giresun,40.5,38.5,47.59,96,100,5.64,TR,1627246849
carnarvon,-24.8667,113.6333,51.87,74,1,6.91,AU,1627246719
beloha,-25.1667,45.05,62.19,66,62,11.7,MG,1627246849
kungurtug,50.5994,97.5228,52.05,95,87,2.01,RU,1627246850
wamba,8.9333,8.6,71.15,94,92,2.62,NG,1627246850
kushiro,42.975,144.3747,63.99,93,32,1.25,JP,1627246851
amapa,1.0,-52.0,76.28,94,78,2.82,BR,1627246851
puerto carreno,36.5939,-6.233,75.31,80,0,17.27,ES,1627246851
cannington,-32.0167,115.95,55.2,86,75,3.0,AU,1627246817
constitucion,-35.3333,-72.4167,52.79,88,24,8.21,CL,1627246694
nantucket,41.2835,-70.0995,72.0,89,98,25.9,US,1627246730
bathsheba,13.2167,-59.5167,84.81,79,20,11.5,BB,1627246782
ozernovskiy,51.5,156.5167,53.83,99,100,1.97,RU,1627246852
kupang,-10.1667,123.5833,70.72,76,6,5.08,ID,1627246853
san juan,13.3034,-4.8956,82.71,63,39,11.05,ML,1627246790
thinadhoo,0.5333,72.9333,81.81,70,75,0.69,MV,1627246708
korla,41.7597,86.1469,85.44,13,0,8.39,CN,1627246739
wajima,37.4,136.9,78.96,81,0,2.98,JP,1627246854
nago,26.5881,127.9761,81.03,92,100,11.68,JP,1627246854
vao,-22.6667,167.4833,71.15,70,55,15.12,NC,1627246714
ambanja,-13.6833,48.45,65.84,71,29,4.45,MG,1627246855
manokwari,-0.8667,134.0833,78.31,74,98,3.15,ID,1627246855
rockport,28.0206,-97.0544,95.25,70,40,3.0,US,1627246673
goderich,43.7501,-81.7165,83.03,68,0,5.08,CA,1627246856
lubango,-14.9172,13.4925,57.49,28,0,4.74,AO,1627246856
suraabad,40.8192,49.4687,80.78,65,0,20.2,AZ,1627246856
savannah bight,32.0835,-81.0998,91.02,65,100,1.01,US,1627246630
olinda,-8.0089,-34.8553,71.33,94,75,3.44,BR,1627246583
whyalla,-33.0333,137.5833,50.16,70,1,14.54,AU,1627246857
palafrugell,41.9174,3.1631,78.71,43,84,4.45,ES,1627246858
christchurch,-43.5333,172.6333,53.01,82,100,4.0,NZ,1627246817
asosa,10.0667,34.5333,58.53,97,100,1.83,ET,1627246858
laguna,38.421,-121.4238,106.43,29,1,8.05,US,1627246858
makasar,-5.14,119.4221,66.25,100,20,1.14,ID,1627246859
cotonou,6.3654,2.4183,78.78,83,40,14.97,BJ,1627246672
alofi,-19.0595,-169.9187,77.97,74,8,5.55,NU,1627246859
kaitong,44.8135,123.15,72.77,97,100,6.91,CN,1627246860
lavrentiya,65.5833,-171.0,44.47,99,100,3.62,RU,1627246860
bethel,41.3712,-73.414,82.49,79,92,5.46,US,1627246735
mantova,45.1667,10.7833,81.21,75,80,5.99,IT,1627246861
kutum,14.2,24.6667,73.63,70,99,5.46,SD,1627246861
nemuro,43.3236,145.575,62.51,90,0,4.85,JP,1627246861
nevelsk,46.6733,141.8633,66.63,91,91,6.06,RU,1627246862
canmore,51.0834,-115.3521,79.25,24,32,11.81,CA,1627246862
nizwa,22.9333,57.5333,91.15,47,40,4.36,OM,1627246863
lompoc,34.6391,-120.4579,84.34,71,90,5.99,US,1627246686
havre-saint-pierre,50.2334,-63.5986,73.76,60,1,13.8,CA,1627246678
camana,-16.6228,-72.7111,61.18,83,65,5.41,PE,1627246863
balakhta,55.38,91.6,61.25,89,100,2.13,RU,1627246864
petropavlovsk-kamchatskiy,53.0452,158.6483,63.19,82,20,4.47,RU,1627246864
yar-sale,66.8333,70.8333,44.2,86,42,10.58,RU,1627246695
mersing,2.4312,103.8405,78.1,87,15,6.04,MY,1627246864
fort nelson,52.6517,6.3861,68.18,90,29,2.15,NL,1627246865
maniitsoq,65.4167,-52.9,46.08,72,100,10.38,GL,1627246865
lyuban,52.7985,28.0048,65.26,73,36,5.55,BY,1627246865
eirunepe,-6.6603,-69.8736,87.93,53,88,0.2,BR,1627246866
boa vista,4.4296,8.9742,74.12,86,75,2.93,CM,1627246866
del rio,38.7941,45.0665,70.38,55,0,1.39,IR,1627246866
marzuq,14.4,46.4667,73.38,79,74,7.85,YE,1627246867
chuy,-33.6971,-53.4616,63.23,90,1,5.23,UY,1627246772
ingham,42.6,-84.3833,87.44,45,1,10.36,US,1627246867
jasper,37.2001,-94.3502,89.24,50,47,2.75,US,1627246867
vostok,46.4856,135.8833,69.69,84,95,3.49,RU,1627246761
sakakah,29.9697,40.2064,99.97,20,2,5.75,SA,1627246696
dubovka,49.0583,44.829,76.15,51,17,11.72,RU,1627246868
ibipeba,-11.6408,-42.0111,71.8,46,33,8.61,BR,1627246868
verkhoyansk,67.5447,133.385,63.16,55,69,0.76,RU,1627246779
tomatlan,19.9333,-105.25,91.15,60,22,9.55,MX,1627246868
valparaiso,-33.0393,-71.6273,54.48,82,62,7.45,CL,1627246869
morondava,-20.2833,44.2833,70.09,56,23,14.72,MG,1627246869
bonavista,48.6499,-53.1147,58.12,85,17,12.64,CA,1627246870
sao jose de ribamar,20.5113,76.2129,72.41,85,38,14.43,IN,1627246871
tilichiki,60.4667,166.1,54.45,95,100,4.92,RU,1627246803
zelenogorskiy,55.0333,87.0,66.72,97,97,3.53,RU,1627246871
solnechnyy,50.7214,136.6319,72.68,77,100,3.09,RU,1627246732
katherine,-14.4667,132.2667,64.72,77,81,5.75,AU,1627246713
tabuk,17.4189,121.4443,77.65,77,100,1.14,PH,1627246872
kavieng,-2.5744,150.7967,81.23,75,93,4.38,PG,1627246768
ayorou,14.7308,0.9174,93.6,39,19,8.05,NE,1627246872
iqaluit,63.7506,-68.5145,51.53,87,75,5.99,CA,1627246713
lydenburg,-25.0978,30.4597,38.39,90,0,2.66,ZA,1627246873
camabatela,-8.1881,15.375,63.57,43,8,2.86,AO,1627246873
marsa matruh,35.8792,14.4953,80.28,73,0,6.91,MT,1627246873
cervo,43.6702,-7.4101,64.96,93,76,3.83,ES,1627246874
mae hong son,34.8244,108.9303,76.3,67,52,1.59,CN,1627246874
high rock,33.6123,-95.7472,98.11,43,1,5.32,US,1627246874
pathein,16.7833,94.7333,79.74,86,100,10.4,MM,1627246875
ukiah,39.1502,-123.2078,106.12,18,1,8.05,US,1627246875
bentiu,9.2333,29.8333,70.39,97,100,5.06,SS,1627246875
severomuysk,56.1481,113.4267,49.24,82,22,3.87,RU,1627246875
selestat,48.2598,7.4565,69.1,82,0,4.61,FR,1627246876
arkhara,49.4212,130.0842,68.54,99,100,7.43,RU,1627246876
namibe,-15.1961,12.1522,66.36,87,0,5.77,AO,1627246876
blatec,41.8378,22.5781,67.24,41,2,4.54,MK,1627246877
vardo,70.3705,31.1107,46.6,80,100,20.18,NO,1627246675
alihe,50.5667,123.7167,57.67,94,96,3.02,CN,1627246877
mitu,1.1983,-70.1733,78.33,76,65,3.11,CO,1627246878
sorland,67.667,12.6934,54.5,84,96,6.53,NO,1627246878
rosario,-32.9468,-60.6393,64.08,60,0,3.0,AR,1627246590
keti bandar,40.8737,43.8448,65.52,64,58,11.5,AM,1627246878
zaysan,47.4667,84.8667,71.1,42,0,8.9,KZ,1627246879
north platte,50.3333,3.6667,66.6,93,78,6.89,FR,1627246879
angoche,-16.2325,39.9086,70.48,61,87,15.79,MZ,1627246823
kargasok,59.0556,80.8572,61.21,85,75,4.14,RU,1627246837
banepa,27.6298,85.5214,68.32,100,75,2.3,NP,1627246880
geraldton,-28.7667,114.6,46.81,93,0,12.66,AU,1627246743
sao joao da barra,20.5113,76.2129,72.41,85,38,14.43,IN,1627246880
shelburne,44.0787,-80.2041,83.26,36,0,14.16,CA,1627246746
san cristobal,13.3034,-4.8956,82.71,63,39,11.05,ML,1627246880
eureka,40.8021,-124.1637,63.25,74,100,7.0,US,1627246793
vaitape,-16.5167,-151.75,78.08,65,0,10.89,PF,1627246768
pompeia,-22.1086,-50.1717,71.26,27,0,3.85,BR,1627246881
ibra,22.6906,58.5334,91.65,41,63,4.14,OM,1627246881
grand-santi,4.25,-54.3833,78.24,91,83,3.89,GF,1627246677
nuuk,64.1835,-51.7216,52.88,62,20,4.61,GL,1627246882
coihaique,-45.5752,-72.0662,42.75,52,40,8.05,CL,1627246783
casper,42.8666,-106.3131,94.71,17,21,1.99,US,1627246882
pacasmayo,-7.4006,-79.5714,68.68,75,14,15.64,PE,1627246883
tateyama,34.9833,139.8667,81.01,83,88,9.6,JP,1627246883
alcudia,39.8532,3.1214,78.75,79,34,5.99,ES,1627246883
meulaboh,4.1363,96.1285,76.51,88,98,4.99,ID,1627246884
atherton,53.5237,-2.4935,67.75,75,23,4.0,GB,1627246884
petit goave,-26.1019,28.3708,43.57,38,0,1.32,ZA,1627246884
caxito,-8.5785,13.6643,72.25,88,12,1.95,AO,1627246885
tigil,57.8,158.6667,62.83,82,58,11.79,RU,1627246885
mantua,45.1667,10.7833,81.21,75,80,5.99,IT,1627246885
guaira,-20.3183,-48.3106,74.32,26,0,4.59,BR,1627246886
udachnyy,66.4167,112.4,72.09,55,42,10.51,RU,1627246886
maldonado,-34.6667,-54.9167,60.19,97,73,8.41,UY,1627246773
dutlwe,-23.9833,23.9,45.18,55,2,10.6,BW,1627246887
ulaangom,49.9811,92.0667,65.84,61,100,0.49,MN,1627246887
lazaro cardenas,19.4558,-71.3261,76.01,67,51,9.8,DO,1627246888
preobrazheniye,42.9019,133.9064,72.5,85,48,3.4,RU,1627246888
kawalu,-7.3817,108.2082,66.78,96,65,2.08,ID,1627246889
magadi,12.9667,77.2333,70.14,90,12,10.83,IN,1627246889
gat,31.61,34.7642,81.81,79,1,6.22,IL,1627246720
lodja,-3.4833,23.4333,81.43,30,97,3.24,CD,1627246815
karup,56.3067,9.1684,68.79,75,20,4.61,DK,1627246890
alacranes,22.7675,-81.5675,91.45,47,34,6.29,CU,1627246890
ulety,51.3572,112.4849,55.71,87,99,2.37,RU,1627246890
guaraniacu,-25.1008,-52.8781,64.94,58,16,4.23,BR,1627246891
at-bashi,41.1702,75.8106,60.46,36,0,1.41,KG,1627246891
mitsamiouli,-11.3847,43.2844,76.1,64,97,12.03,KM,1627246891
prince rupert,52.9669,-108.3847,74.19,34,98,9.75,CA,1627246892
mehriz,31.5917,54.4318,82.06,14,0,5.88,IR,1627246892
kasongo-lunda,-6.4667,16.8167,73.94,29,12,1.74,CD,1627246892
antalaha,-14.9003,50.2788,65.34,84,73,8.21,MG,1627246893
kerema,-7.9631,145.7785,76.12,91,95,4.12,PG,1627246893
isla mujeres,15.8939,120.3036,78.78,91,100,3.29,PH,1627246894
moengo,5.6167,-54.4,80.53,76,97,2.44,SR,1627246894
erzin,36.9559,36.2,79.0,76,0,1.88,TR,1627246894
tual,-5.6667,132.75,79.48,81,69,19.42,ID,1627246895
monticello,45.3055,-93.7941,93.9,25,1,8.05,US,1627246827
zaraza,9.3503,-65.3245,81.68,71,95,3.13,VE,1627246896
gwanda,-20.9333,29.0,46.0,64,46,5.12,ZW,1627246896
wakkanai,45.4094,141.6739,72.5,88,37,2.39,JP,1627246896
bintulu,3.1667,113.0333,79.56,87,98,2.08,MY,1627246897
ngaoundere,7.3167,13.5833,64.72,97,100,3.74,CM,1627246897
gombe,10.2897,11.1673,74.97,82,99,11.43,NG,1627246898
sorong,-0.8833,131.25,76.87,89,100,10.63,ID,1627246777
mananjary,-21.2167,48.3333,64.42,79,95,8.93,MG,1627246898
kang,-23.6752,22.7876,44.89,47,1,8.93,BW,1627246898
daru,-9.0763,143.2092,76.68,82,63,14.0,PG,1627246899
andenes,69.3143,16.1194,56.46,100,75,9.22,NO,1627246899
mahajanga,-15.7167,46.3167,69.82,78,40,3.44,MG,1627246900
mattawa,46.7379,-119.9028,100.02,13,0,3.36,US,1627246890
grindavik,63.8424,-22.4338,50.47,87,75,27.63,IS,1627246700
charters towers,38.5736,-83.4333,91.08,78,91,6.13,US,1627246900
sitka,57.0531,-135.33,55.36,86,100,2.51,US,1627246770
eyl,7.9803,49.8164,77.67,71,35,22.32,SO,1627246702
saint-augustin,51.226,-58.6502,70.36,57,19,21.05,CA,1627246738
tonder,54.9331,8.8667,68.52,92,88,8.39,DK,1627246901
bregovo,44.1517,22.6425,65.39,48,7,7.43,BG,1627246901
belaya gora,49.029,25.7706,65.26,71,5,7.94,UA,1627246902
cairns,-16.9167,145.7667,64.35,77,99,9.22,AU,1627246744
kisangani,0.5167,25.2,76.46,65,63,2.75,CD,1627246744
guilin,25.2819,110.2864,75.94,85,10,1.99,CN,1627246902
maputo,-25.9653,32.5892,58.68,82,40,3.44,MZ,1627246902
san quintin,13.3034,-4.8956,82.71,63,39,11.05,ML,1627246790
ondjiva,-17.0667,15.7333,59.65,40,0,7.83,AO,1627246903
bay roberts,43.7334,-84.0166,87.85,42,0,5.01,US,1627246904
dauphin,51.1494,-100.0502,85.78,21,92,13.78,CA,1627246904
halifax,44.6453,-63.5724,75.09,67,77,5.01,CA,1627246608
coquimbo,-29.9533,-71.3436,57.18,69,0,7.0,CL,1627246904
bandarbeyla,9.4942,50.8122,76.44,78,0,26.66,SO,1627246671
pafos,34.7667,32.4167,80.38,74,0,3.44,CY,1627246905
abdulino,53.7,53.6667,52.5,55,3,7.05,RU,1627246905
hounde,11.5,-3.5167,77.7,74,42,6.02,BF,1627246905
nouadhibou,20.931,-17.0347,68.41,92,6,22.97,MR,1627246906
miyako,39.6367,141.9525,71.06,84,89,3.6,JP,1627246906
south lake tahoe,64.0,-19.0,43.77,92,66,9.13,IS,1627246906
zhezkazgan,47.8043,67.7144,75.99,41,0,19.86,KZ,1627246742
vila velha,42.0304,-8.1588,60.75,87,13,3.0,PT,1627246907
salinopolis,-0.6136,-47.3561,80.33,78,92,10.16,BR,1627246907
brigantine,39.4101,-74.3646,87.03,78,20,9.22,US,1627246907
leh,34.1667,77.5833,71.89,43,98,7.25,IN,1627246908
lobito,-12.3481,13.5456,70.12,83,65,6.6,AO,1627246908
sakata,38.9167,139.855,74.44,82,32,7.85,JP,1627246879
harper,4.375,-7.7169,75.56,77,23,6.87,LR,1627246909
mbandaka,0.0487,18.2603,74.66,65,100,2.95,CD,1627246909
humaita,-7.5061,-63.0208,96.42,28,56,2.01,BR,1627246909
hamada,34.8833,132.0833,73.99,76,23,4.07,JP,1627246910
griffith,41.5284,-87.4237,91.89,35,1,1.99,US,1627246730
okhotsk,59.3833,143.3,56.3,97,100,4.79,RU,1627246736
townsville,-19.25,146.8,52.68,82,20,0.0,AU,1627246910
vanimo,-2.6741,141.3028,75.69,80,100,4.61,PG,1627246867
phuket,8.0,98.25,87.1,78,20,12.66,TH,1627246911
manggar,-2.8833,108.2667,81.09,73,5,13.85,ID,1627246911
pereslavl-zalesskiy,56.7393,38.8563,60.73,59,100,4.92,RU,1627246911
svetlogorsk,52.6333,29.7333,64.31,72,42,5.32,BY,1627246874
santa maria,17.486,120.4348,79.16,92,100,12.28,PH,1627246912
lawan kuda baharu,26.8686,72.0378,86.72,69,100,19.71,IN,1627246912
bulancak,40.9372,38.2291,74.21,79,15,5.37,TR,1627246913
barra do corda,-11.0894,-43.1417,76.5,51,26,7.78,BR,1627246913
vila,42.0304,-8.1588,60.75,87,13,3.0,PT,1627246769
crab hill,37.2651,-76.4911,90.18,63,40,7.0,US,1627246913
huarmey,-10.0681,-78.1522,68.54,73,10,8.55,PE,1627246914
matara,5.9485,80.5353,77.92,86,99,10.89,LK,1627246859
trincomalee,8.5711,81.2335,81.28,77,100,25.17,LK,1627246821
kalmunai,7.4167,81.8167,79.84,80,100,5.99,LK,1627246914
rawlins,41.7911,-107.2387,87.69,12,1,0.0,US,1627246914
samarai,-10.6167,150.6667,78.71,77,100,14.61,PG,1627246915
westport,41.1415,-73.3579,83.98,83,98,1.99,US,1627246915
akdepe,42.0551,59.3788,87.8,35,0,12.66,TM,1627246916
mocajuba,-2.5842,-49.5072,83.64,55,82,2.39,BR,1627246916
waingapu,-9.6567,120.2641,71.13,76,5,3.85,ID,1627246906
mawlaik,23.6333,94.4167,75.13,100,98,1.19,MM,1627246916
lokosovo,61.1333,74.8167,55.67,97,100,13.56,RU,1627246917
fort smith,52.6517,6.3861,68.18,90,29,2.15,NL,1627246917
jacareacanga,-6.2222,-57.7528,93.07,32,43,2.04,BR,1627246917
cacador,-26.7753,-51.015,61.79,72,49,3.29,BR,1627246647
kara-tyube,44.6336,45.4369,79.23,37,56,6.96,RU,1627246918
jijiga,9.35,42.8,61.56,67,83,17.92,ET,1627246918
puerto del rosario,36.5939,-6.233,75.31,80,0,17.27,ES,1627246851
atar,20.5169,-13.0499,103.15,15,98,5.39,MR,1627246725
touros,-5.1989,-35.4608,79.7,75,5,13.18,BR,1627246790
khani,41.9563,42.9566,62.17,98,68,1.5,GE,1627246810
adamovka,51.5223,59.9396,61.45,69,4,7.81,RU,1627246770
baoning,25.3378,110.026,75.96,86,21,2.73,CN,1627246919
talcahuano,-36.7167,-73.1167,51.98,89,98,10.69,CL,1627246919
porto seguro,41.1496,-8.611,68.29,88,75,1.01,PT,1627246689
port macquarie,-7.0349,29.7638,67.95,55,19,5.37,CD,1627246819
killin,33.6123,-91.7412,95.95,53,1,0.0,US,1627246920
